{
    "code": 200,
    "success": true,
    "data": [
        {
            "stationId": "BJSSYLJYXGS000001",
            "stationName": "北京市三一兰机有限公司",
            "lon": 116.102059,
            "lat": 40.213196,
            "height": 32000.0,
            "windSpeed": 0.0,
            "gustSpeed": 0.0,
            "risk": 0,
            "forecastTime": "2025-07-10 11:00:00",
            "stationType": "光伏电站"
        },
        {
            "stationId": "BJYSJNJSYXZRGS000002",
            "stationName": "北京源深节能技术有限责任公司",
            "lon": 116.579554,
            "lat": 40.012488,
            "height": 32000.0,
            "windSpeed": 0.0,
            "gustSpeed": 0.0,
            "risk": 0,
            "forecastTime": "2025-07-10 11:00:00",
            "stationType": "变电站"
        },
        {
            "stationId": "BJHLXNYKJFCYXGRGS000003",
            "stationName": "北京汉隆新能源科技发辰有限贡任公司",
            "lon": 116.421093,
            "lat": 39.638238,
            "height": 32000.0,
            "windSpeed": 0.0,
            "gustSpeed": 0.0,
            "risk": 0,
            "forecastTime": "2025-07-10 11:00:00",
            "stationType": "光伏电站"
        },
        {
            "stationId": "BJJFZYNYKJYXGS(BJSDZZYJD)000004",
            "stationName": "北京京昉智意能源科技有限公司(北京商端制造业基地)",
            "lon": 116.073664,
            "lat": 39.671094,
            "height": 32000.0,
            "windSpeed": 0.0,
            "gustSpeed": 0.0,
            "risk": 0,
            "forecastTime": "2025-07-10 11:00:00",
            "stationType": "变电站"
        },
        {
            "stationId": "BJLKGLNYGLYXGS000005",
            "stationName": "北京临空管乐能源管理有限公司",
            "lon": 116.549994,
            "lat": 40.426339,
            "height": 32000.0,
            "windSpeed": 0.0,
            "gustSpeed": 0.0,
            "risk": 0,
            "forecastTime": "2025-07-10 11:00:00",
            "stationType": "风电站"
        },
        {
            "stationId": "BJYSJNJSYXGRGS000006",
            "stationName": "北京源深节能技术有限贡任公司",
            "lon": 116.861518,
            "lat": 40.380208,
            "height": 32000.0,
            "windSpeed": 0.0,
            "gustSpeed": 0.0,
            "risk": 0,
            "forecastTime": "2025-07-10 11:00:00",
            "stationType": "光伏电站"
        },
        {
            "stationId": "BJYSJNJSYXZRGS000007",
            "stationName": "北京源深节能技术有限责任公司",
            "lon": 117.122733,
            "lat": 40.160545,
            "height": 32000.0,
            "windSpeed": 0.0,
            "gustSpeed": 0.0,
            "risk": 0,
            "forecastTime": "2025-07-10 11:00:00",
            "stationType": "变电站"
        },
        {
            "stationId": "BJSKZYYXGS000008",
            "stationName": "北京首哭置业有限公司",
            "lon": 116.191233,
            "lat": 39.917884,
            "height": 32000.0,
            "windSpeed": 0.0,
            "gustSpeed": 0.0,
            "risk": 0,
            "forecastTime": "2025-07-10 11:00:00",
            "stationType": "风电站"
        },
        {
            "stationId": "BJYSJNJSYXZRGS000009",
            "stationName": "北京源深节能技术有限责任公司",
            "lon": 116.670769,
            "lat": 39.905947,
            "height": 32000.0,
            "windSpeed": 0.0,
            "gustSpeed": 0.0,
            "risk": 0,
            "forecastTime": "2025-07-10 11:00:00",
            "stationType": "光伏电站"
        },
        {
            "stationId": "BJJCJDKGYXGRGS000010",
            "stationName": "北京京城机电控股有限贡任公司",
            "lon": 115.99648,
            "lat": 40.479483,
            "height": 32000.0,
            "windSpeed": 0.0,
            "gustSpeed": 0.0,
            "risk": 0,
            "forecastTime": "2025-07-10 11:00:00",
            "stationType": "风电站"
        },
        {
            "stationId": "BJQYGFKJYXGS000011",
            "stationName": "北京清英光伏科技有限公司",
            "lon": 116.537291,
            "lat": 39.786977,
            "height": 32000.0,
            "windSpeed": 0.0,
            "gustSpeed": 0.0,
            "risk": 0,
            "forecastTime": "2025-07-10 11:00:00",
            "stationType": "光伏电站"
        },
        {
            "stationId": "BJJRJ(BJ)ZYYXGS000012",
            "stationName": "北京金融街(北京)置业有限公司",
            "lon": 116.369903,
            "lat": 39.930757,
            "height": 32000.0,
            "windSpeed": 0.0,
            "gustSpeed": 0.0,
            "risk": 0,
            "forecastTime": "2025-07-10 11:00:00",
            "stationType": "光伏电站"
        },
        {
            "stationId": "BJYJSNENYKJYXGS(DZSLJLJJJGC)000013",
            "stationName": "北京亚景圣诺尔能源科技有限公司(大钟寺蓝景丽家家具广场)",
            "lon": 116.34864,
            "lat": 39.973306,
            "height": 32000.0,
            "windSpeed": 0.0,
            "gustSpeed": 0.0,
            "risk": 0,
            "forecastTime": "2025-07-10 11:00:00",
            "stationType": "变电站"
        },
        {
            "stationId": "BJJFRDYXGRGS000014",
            "stationName": "北京京丰热电有限贡任公司",
            "lon": 116.164892,
            "lat": 39.815671,
            "height": 32000.0,
            "windSpeed": 0.0,
            "gustSpeed": 0.0,
            "risk": 0,
            "forecastTime": "2025-07-10 11:00:00",
            "stationType": "风电站"
        },
        {
            "stationId": "BJCASJYLQXYXGS000015",
            "stationName": "北京诚安世纪医疗器械有限公司",
            "lon": 116.107073,
            "lat": 39.958259,
            "height": 32000.0,
            "windSpeed": 0.0,
            "gustSpeed": 0.0,
            "risk": 0,
            "forecastTime": "2025-07-10 11:00:00",
            "stationType": "变电站"
        },
        {
            "stationId": "BJJLGFKJYXGS000016",
            "stationName": "北京九朗光伏科技有限公司",
            "lon": 116.616411,
            "lat": 40.134458,
            "height": 32000.0,
            "windSpeed": 0.0,
            "gustSpeed": 0.0,
            "risk": 0,
            "forecastTime": "2025-07-10 11:00:00",
            "stationType": "光伏电站"
        },
        {
            "stationId": "BJTNDT(BJ)XNYKJYXGS000017",
            "stationName": "北京天能电投(北京)新能源科技有限公司",
            "lon": 116.616411,
            "lat": 40.134458,
            "height": 32000.0,
            "windSpeed": 0.0,
            "gustSpeed": 0.0,
            "risk": 0,
            "forecastTime": "2025-07-10 11:00:00",
            "stationType": "光伏电站"
        },
        {
            "stationId": "BJJXHYGFKJYXGSY000018",
            "stationName": "北京建新鸿远光伏科技有限公司一",
            "lon": 115.788937,
            "lat": 39.546273,
            "height": 32000.0,
            "windSpeed": 0.0,
            "gustSpeed": 0.0,
            "risk": 0,
            "forecastTime": "2025-07-10 11:00:00",
            "stationType": "变电站"
        },
        {
            "stationId": "BJJXHYGFKJYXGSE000019",
            "stationName": "北京建新鸿远光伏科技有限公司二",
            "lon": 115.788937,
            "lat": 39.546273,
            "height": 32000.0,
            "windSpeed": 0.0,
            "gustSpeed": 0.0,
            "risk": 0,
            "forecastTime": "2025-07-10 11:00:00",
            "stationType": "变电站"
        },
        {
            "stationId": "BJJFZYNYKJYXGS000020",
            "stationName": "北京京昉智意能源科技有限公司",
            "lon": 116.073664,
            "lat": 39.671094,
            "height": 32000.0,
            "windSpeed": 0.0,
            "gustSpeed": 0.0,
            "risk": 0,
            "forecastTime": "2025-07-10 11:00:00",
            "stationType": "变电站"
        },
        {
            "stationId": "BJKXSNKJYXGS000021",
            "stationName": "北京科新思诺科技有限公司",
            "lon": 116.580546,
            "lat": 40.296091,
            "height": 32000.0,
            "windSpeed": 0.0,
            "gustSpeed": 0.0,
            "risk": 0,
            "forecastTime": "2025-07-10 11:00:00",
            "stationType": "光伏电站"
        },
        {
            "stationId": "BJBPZBCYYXGS000022",
            "stationName": "北京北排装备产业有限公司",
            "lon": 116.544761,
            "lat": 39.965419,
            "height": 32000.0,
            "windSpeed": 0.0,
            "gustSpeed": 0.0,
            "risk": 0,
            "forecastTime": "2025-07-10 11:00:00",
            "stationType": "光伏电站"
        },
        {
            "stationId": "BJDQL(BJ)XXNYJSYXGS000023",
            "stationName": "北京大齐鲁(北京)新型能源技术有限公司",
            "lon": 116.662463,
            "lat": 39.664376,
            "height": 32000.0,
            "windSpeed": 0.0,
            "gustSpeed": 0.0,
            "risk": 0,
            "forecastTime": "2025-07-10 11:00:00",
            "stationType": "变电站"
        },
        {
            "stationId": "BJBPXNYKJYXGSY000024",
            "stationName": "北京北排新能源科技有限公司一",
            "lon": 116.406456,
            "lat": 39.851078,
            "height": 32000.0,
            "windSpeed": 0.0,
            "gustSpeed": 0.0,
            "risk": 0,
            "forecastTime": "2025-07-10 11:00:00",
            "stationType": "风电站"
        },
        {
            "stationId": "BJBPXNYKJYXGSE000025",
            "stationName": "北京北排新能源科技有限公司二",
            "lon": 116.406456,
            "lat": 39.851078,
            "height": 32000.0,
            "windSpeed": 0.0,
            "gustSpeed": 0.0,
            "risk": 0,
            "forecastTime": "2025-07-10 11:00:00",
            "stationType": "变电站"
        },
        {
            "stationId": "BJBPXNYKJYXGSS000026",
            "stationName": "北京北排新能源科技有限公司三",
            "lon": 116.375393,
            "lat": 40.041159,
            "height": 32000.0,
            "windSpeed": 0.0,
            "gustSpeed": 0.0,
            "risk": 0,
            "forecastTime": "2025-07-10 11:00:00",
            "stationType": "变电站"
        },
        {
            "stationId": "BJBPXNYKJYXGSS000027",
            "stationName": "北京北排新能源科技有限公司四",
            "lon": 116.375393,
            "lat": 40.041159,
            "height": 32000.0,
            "windSpeed": 0.0,
            "gustSpeed": 0.0,
            "risk": 0,
            "forecastTime": "2025-07-10 11:00:00",
            "stationType": "光伏电站"
        },
        {
            "stationId": "BJHALGHBKJYXGS000028",
            "stationName": "北京恒安绿谷坏保科技有限公司",
            "lon": 117.015058,
            "lat": 40.190531,
            "height": 32000.0,
            "windSpeed": 0.0,
            "gustSpeed": 0.0,
            "risk": 0,
            "forecastTime": "2025-07-10 11:00:00",
            "stationType": "风电站"
        },
        {
            "stationId": "BJSQLNXNYKJYXGS000029",
            "stationName": "北京首清绿能新能源科技有限公司",
            "lon": 116.689189,
            "lat": 40.038004,
            "height": 32000.0,
            "windSpeed": 0.0,
            "gustSpeed": 0.0,
            "risk": 0,
            "forecastTime": "2025-07-10 11:00:00",
            "stationType": "光伏电站"
        },
        {
            "stationId": "BJYSJNJSYXGRGS000030",
            "stationName": "北京源深节能技术有限贡任公司",
            "lon": 116.509902,
            "lat": 39.73585,
            "height": 32000.0,
            "windSpeed": 0.0,
            "gustSpeed": 0.0,
            "risk": 0,
            "forecastTime": "2025-07-10 11:00:00",
            "stationType": "变电站"
        },
        {
            "stationId": "BJJYLNDLXTGCYXGSY000031",
            "stationName": "北京京仪绿能电力系统工程有限公司一",
            "lon": 115.932549,
            "lat": 40.370685,
            "height": 32000.0,
            "windSpeed": 0.0,
            "gustSpeed": 0.0,
            "risk": 0,
            "forecastTime": "2025-07-10 11:00:00",
            "stationType": "变电站"
        },
        {
            "stationId": "BJJYLNDLXTGCYXGSE000032",
            "stationName": "北京京仪绿能电力系统工程有限公司二",
            "lon": 115.932549,
            "lat": 40.370685,
            "height": 32000.0,
            "windSpeed": 0.0,
            "gustSpeed": 0.0,
            "risk": 0,
            "forecastTime": "2025-07-10 11:00:00",
            "stationType": "光伏电站"
        },
        {
            "stationId": "BJJYLNDLXTGCYXGSS000033",
            "stationName": "北京京仪绿能电力系统工程有限公司三",
            "lon": 115.932549,
            "lat": 40.370685,
            "height": 32000.0,
            "windSpeed": 0.0,
            "gustSpeed": 0.0,
            "risk": 0,
            "forecastTime": "2025-07-10 11:00:00",
            "stationType": "变电站"
        },
        {
            "stationId": "BJJYLNDLXTGCYXGSS000034",
            "stationName": "北京京仪绿能电力系统工程有限公司四",
            "lon": 115.932549,
            "lat": 40.370685,
            "height": 32000.0,
            "windSpeed": 0.0,
            "gustSpeed": 0.0,
            "risk": 0,
            "forecastTime": "2025-07-10 11:00:00",
            "stationType": "光伏电站"
        },
        {
            "stationId": "BJZGKXYDGYJS000035",
            "stationName": "北京中国科学院电工研究所",
            "lon": 115.990133,
            "lat": 40.442226,
            "height": 32000.0,
            "windSpeed": 0.0,
            "gustSpeed": 0.0,
            "risk": 0,
            "forecastTime": "2025-07-10 11:00:00",
            "stationType": "风电站"
        },
        {
            "stationId": "BJLY(BJ)XNYYXGS000036",
            "stationName": "北京龙源(北京)新能源有限公司",
            "lon": 115.990133,
            "lat": 40.442226,
            "height": 32000.0,
            "windSpeed": 0.0,
            "gustSpeed": 0.0,
            "risk": 0,
            "forecastTime": "2025-07-10 11:00:00",
            "stationType": "变电站"
        },
        {
            "stationId": "BJZGHHFGFKJYXGS000037",
            "stationName": "北京中广核海丰光伏科技有限公司",
            "lon": 116.153973,
            "lat": 40.236684,
            "height": 32000.0,
            "windSpeed": 0.0,
            "gustSpeed": 0.0,
            "risk": 0,
            "forecastTime": "2025-07-10 11:00:00",
            "stationType": "光伏电站"
        },
        {
            "stationId": "BJJFXNXNYKJYXGS000038",
            "stationName": "北京京福鑫能新能源科技有限公司",
            "lon": 116.25681,
            "lat": 40.117728,
            "height": 32000.0,
            "windSpeed": 0.0,
            "gustSpeed": 0.0,
            "risk": 0,
            "forecastTime": "2025-07-10 11:00:00",
            "stationType": "变电站"
        },
        {
            "stationId": "LMSFDC000039",
            "stationName": "鹿鸣山风电场",
            "lon": 115.8167,
            "lat": 40.383333,
            "height": 32000.0,
            "windSpeed": 0.0,
            "gustSpeed": 0.0,
            "risk": 0,
            "forecastTime": "2025-07-10 11:00:00",
            "stationType": "变电站"
        },
        {
            "stationId": "LQXGFDZ000040",
            "stationName": "龙庆峡光伏电站",
            "lon": 116.0083,
            "lat": 40.52175,
            "height": 32000.0,
            "windSpeed": 0.0,
            "gustSpeed": 0.0,
            "risk": 0,
            "forecastTime": "2025-07-10 11:00:00",
            "stationType": "光伏电站"
        },
        {
            "stationId": "BJHDMYGFDZ000041",
            "stationName": "北京华电密云光伏电站",
            "lon": 116.7615,
            "lat": 40.450728,
            "height": 32000.0,
            "windSpeed": 0.0,
            "gustSpeed": 0.0,
            "risk": 0,
            "forecastTime": "2025-07-10 11:00:00",
            "stationType": "变电站"
        },
        {
            "stationId": "QHLFDC000042",
            "stationName": "青灰岭风电场",
            "lon": 115.88333,
            "lat": 40.2,
            "height": 32000.0,
            "windSpeed": 0.0,
            "gustSpeed": 0.0,
            "risk": 0,
            "forecastTime": "2025-07-10 11:00:00",
            "stationType": "光伏电站"
        },
        {
            "stationId": "XY000043",
            "stationName": "兴业",
            "lon": 116.534211,
            "lat": 39.766952,
            "height": 32000.0,
            "windSpeed": 0.0,
            "gustSpeed": 0.0,
            "risk": 0,
            "forecastTime": "2025-07-10 11:00:00",
            "stationType": "风电站"
        },
        {
            "stationId": "CYGY000044",
            "stationName": "朝阳公园",
            "lon": 116.481832,
            "lat": 39.935162,
            "height": 32000.0,
            "windSpeed": 0.0,
            "gustSpeed": 0.0,
            "risk": 0,
            "forecastTime": "2025-07-10 11:00:00",
            "stationType": "光伏电站"
        },
        {
            "stationId": "TH000045",
            "stationName": "泰河",
            "lon": 116.487657,
            "lat": 39.763833,
            "height": 32000.0,
            "windSpeed": 0.0,
            "gustSpeed": 0.0,
            "risk": 0,
            "forecastTime": "2025-07-10 11:00:00",
            "stationType": "风电站"
        },
        {
            "stationId": "CXY000046",
            "stationName": "创新园",
            "lon": 116.187778,
            "lat": 40.064632,
            "height": 32000.0,
            "windSpeed": 0.0,
            "gustSpeed": 0.0,
            "risk": 0,
            "forecastTime": "2025-07-10 11:00:00",
            "stationType": "变电站"
        },
        {
            "stationId": "LZZ000047",
            "stationName": "楼梓庄",
            "lon": 116.60198,
            "lat": 39.987048,
            "height": 32000.0,
            "windSpeed": 0.0,
            "gustSpeed": 0.0,
            "risk": 0,
            "forecastTime": "2025-07-10 11:00:00",
            "stationType": "风电站"
        },
        {
            "stationId": "BSL000048",
            "stationName": "宝盛里",
            "lon": 116.361249,
            "lat": 40.042356,
            "height": 32000.0,
            "windSpeed": 0.0,
            "gustSpeed": 0.0,
            "risk": 0,
            "forecastTime": "2025-07-10 11:00:00",
            "stationType": "光伏电站"
        },
        {
            "stationId": "LLT000049",
            "stationName": "六里屯",
            "lon": 116.247709,
            "lat": 40.050533,
            "height": 32000.0,
            "windSpeed": 0.0,
            "gustSpeed": 0.0,
            "risk": 0,
            "forecastTime": "2025-07-10 11:00:00",
            "stationType": "风电站"
        },
        {
            "stationId": "HF000050",
            "stationName": "槐房",
            "lon": 116.364681,
            "lat": 39.809301,
            "height": 32000.0,
            "windSpeed": 0.0,
            "gustSpeed": 0.0,
            "risk": 0,
            "forecastTime": "2025-07-10 11:00:00",
            "stationType": "变电站"
        },
        {
            "stationId": "WLJ000051",
            "stationName": "五路居",
            "lon": 116.284518,
            "lat": 39.932083,
            "height": 32000.0,
            "windSpeed": 0.0,
            "gustSpeed": 0.0,
            "risk": 0,
            "forecastTime": "2025-07-10 11:00:00",
            "stationType": "光伏电站"
        },
        {
            "stationId": "BJZ000052",
            "stationName": "白家庄",
            "lon": 116.454191,
            "lat": 39.930979,
            "height": 32000.0,
            "windSpeed": 0.0,
            "gustSpeed": 0.0,
            "risk": 0,
            "forecastTime": "2025-07-10 11:00:00",
            "stationType": "风电站"
        },
        {
            "stationId": "AJL000053",
            "stationName": "安家楼",
            "lon": 116.470355,
            "lat": 39.958516,
            "height": 32000.0,
            "windSpeed": 0.0,
            "gustSpeed": 0.0,
            "risk": 0,
            "forecastTime": "2025-07-10 11:00:00",
            "stationType": "光伏电站"
        },
        {
            "stationId": "BGD000054",
            "stationName": "北工大",
            "lon": 116.4812,
            "lat": 39.873996,
            "height": 32000.0,
            "windSpeed": 0.0,
            "gustSpeed": 0.0,
            "risk": 0,
            "forecastTime": "2025-07-10 11:00:00",
            "stationType": "光伏电站"
        },
        {
            "stationId": "DJT000055",
            "stationName": "大郊亭",
            "lon": 116.467995,
            "lat": 39.882557,
            "height": 32000.0,
            "windSpeed": 0.0,
            "gustSpeed": 0.0,
            "risk": 0,
            "forecastTime": "2025-07-10 11:00:00",
            "stationType": "光伏电站"
        },
        {
            "stationId": "DT000056",
            "stationName": "大屯",
            "lon": 116.399938,
            "lat": 40.010224,
            "height": 32000.0,
            "windSpeed": 0.0,
            "gustSpeed": 0.0,
            "risk": 0,
            "forecastTime": "2025-07-10 11:00:00",
            "stationType": "变电站"
        },
        {
            "stationId": "HSM000057",
            "stationName": "黄杉木",
            "lon": 116.515999,
            "lat": 39.917605,
            "height": 32000.0,
            "windSpeed": 0.0,
            "gustSpeed": 0.0,
            "risk": 0,
            "forecastTime": "2025-07-10 11:00:00",
            "stationType": "光伏电站"
        },
        {
            "stationId": "PLY000058",
            "stationName": "平乐园",
            "lon": 116.473758,
            "lat": 39.886267,
            "height": 32000.0,
            "windSpeed": 0.0,
            "gustSpeed": 0.0,
            "risk": 0,
            "forecastTime": "2025-07-10 11:00:00",
            "stationType": "风电站"
        },
        {
            "stationId": "SJF000059",
            "stationName": "三间房",
            "lon": 116.556889,
            "lat": 39.923474,
            "height": 32000.0,
            "windSpeed": 0.0,
            "gustSpeed": 0.0,
            "risk": 0,
            "forecastTime": "2025-07-10 11:00:00",
            "stationType": "光伏电站"
        },
        {
            "stationId": "XHM000060",
            "stationName": "小红门",
            "lon": 116.460386,
            "lat": 39.824286,
            "height": 32000.0,
            "windSpeed": 0.0,
            "gustSpeed": 0.0,
            "risk": 0,
            "forecastTime": "2025-07-10 11:00:00",
            "stationType": "变电站"
        },
        {
            "stationId": "DHC000061",
            "stationName": "大灰厂",
            "lon": 116.123771,
            "lat": 39.814698,
            "height": 32000.0,
            "windSpeed": 0.0,
            "gustSpeed": 0.0,
            "risk": 0,
            "forecastTime": "2025-07-10 11:00:00",
            "stationType": "光伏电站"
        },
        {
            "stationId": "KJY000062",
            "stationName": "科技园",
            "lon": 116.288626,
            "lat": 39.836602,
            "height": 32000.0,
            "windSpeed": 0.0,
            "gustSpeed": 0.0,
            "risk": 0,
            "forecastTime": "2025-07-10 11:00:00",
            "stationType": "光伏电站"
        },
        {
            "stationId": "LY000063",
            "stationName": "李窑",
            "lon": 116.388464,
            "lat": 39.838744,
            "height": 32000.0,
            "windSpeed": 0.0,
            "gustSpeed": 0.0,
            "risk": 0,
            "forecastTime": "2025-07-10 11:00:00",
            "stationType": "光伏电站"
        },
        {
            "stationId": "LQ000064",
            "stationName": "六圈",
            "lon": 116.290497,
            "lat": 39.819639,
            "height": 32000.0,
            "windSpeed": 0.0,
            "gustSpeed": 0.0,
            "risk": 0,
            "forecastTime": "2025-07-10 11:00:00",
            "stationType": "变电站"
        },
        {
            "stationId": "LGQ000065",
            "stationName": "卢沟桥",
            "lon": 116.252048,
            "lat": 39.842572,
            "height": 32000.0,
            "windSpeed": 0.0,
            "gustSpeed": 0.0,
            "risk": 0,
            "forecastTime": "2025-07-10 11:00:00",
            "stationType": "光伏电站"
        },
        {
            "stationId": "MJF000066",
            "stationName": "毛家坟",
            "lon": 116.414632,
            "lat": 39.845203,
            "height": 32000.0,
            "windSpeed": 0.0,
            "gustSpeed": 0.0,
            "risk": 0,
            "forecastTime": "2025-07-10 11:00:00",
            "stationType": "风电站"
        },
        {
            "stationId": "WLD000067",
            "stationName": "五里店",
            "lon": 116.237185,
            "lat": 39.855721,
            "height": 32000.0,
            "windSpeed": 0.0,
            "gustSpeed": 0.0,
            "risk": 0,
            "forecastTime": "2025-07-10 11:00:00",
            "stationType": "变电站"
        },
        {
            "stationId": "XLY000068",
            "stationName": "西罗园",
            "lon": 116.378056,
            "lat": 39.850618,
            "height": 32000.0,
            "windSpeed": 0.0,
            "gustSpeed": 0.0,
            "risk": 0,
            "forecastTime": "2025-07-10 11:00:00",
            "stationType": "风电站"
        },
        {
            "stationId": "YMK000069",
            "stationName": "衙门口",
            "lon": 116.224523,
            "lat": 39.884386,
            "height": 32000.0,
            "windSpeed": 0.0,
            "gustSpeed": 0.0,
            "risk": 0,
            "forecastTime": "2025-07-10 11:00:00",
            "stationType": "风电站"
        },
        {
            "stationId": "YBY000070",
            "stationName": "园博园",
            "lon": 116.17068,
            "lat": 39.873317,
            "height": 32000.0,
            "windSpeed": 0.0,
            "gustSpeed": 0.0,
            "risk": 0,
            "forecastTime": "2025-07-10 11:00:00",
            "stationType": "光伏电站"
        },
        {
            "stationId": "DBW000071",
            "stationName": "东北旺",
            "lon": 116.282642,
            "lat": 40.034339,
            "height": 32000.0,
            "windSpeed": 0.0,
            "gustSpeed": 0.0,
            "risk": 0,
            "forecastTime": "2025-07-10 11:00:00",
            "stationType": "光伏电站"
        },
        {
            "stationId": "DXY000072",
            "stationName": "东小营",
            "lon": 116.200675,
            "lat": 40.123101,
            "height": 32000.0,
            "windSpeed": 0.0,
            "gustSpeed": 0.0,
            "risk": 0,
            "forecastTime": "2025-07-10 11:00:00",
            "stationType": "变电站"
        },
        {
            "stationId": "HCM000073",
            "stationName": "会城门",
            "lon": 116.323319,
            "lat": 39.903206,
            "height": 32000.0,
            "windSpeed": 0.0,
            "gustSpeed": 0.0,
            "risk": 0,
            "forecastTime": "2025-07-10 11:00:00",
            "stationType": "变电站"
        },
        {
            "stationId": "RJY000074",
            "stationName": "软件园",
            "lon": 116.292142,
            "lat": 40.054276,
            "height": 32000.0,
            "windSpeed": 0.0,
            "gustSpeed": 0.0,
            "risk": 0,
            "forecastTime": "2025-07-10 11:00:00",
            "stationType": "光伏电站"
        },
        {
            "stationId": "SD000075",
            "stationName": "上地",
            "lon": 116.299596,
            "lat": 40.038111,
            "height": 32000.0,
            "windSpeed": 0.0,
            "gustSpeed": 0.0,
            "risk": 0,
            "forecastTime": "2025-07-10 11:00:00",
            "stationType": "变电站"
        },
        {
            "stationId": "SJT000076",
            "stationName": "苏家坨",
            "lon": 116.129264,
            "lat": 40.099245,
            "height": 32000.0,
            "windSpeed": 0.0,
            "gustSpeed": 0.0,
            "risk": 0,
            "forecastTime": "2025-07-10 11:00:00",
            "stationType": "风电站"
        },
        {
            "stationId": "XS000077",
            "stationName": "西山",
            "lon": 116.22537,
            "lat": 39.973257,
            "height": 32000.0,
            "windSpeed": 0.0,
            "gustSpeed": 0.0,
            "risk": 0,
            "forecastTime": "2025-07-10 11:00:00",
            "stationType": "光伏电站"
        },
        {
            "stationId": "NS000078",
            "stationName": "南山",
            "lon": 116.19802,
            "lat": 39.900741,
            "height": 32000.0,
            "windSpeed": 0.0,
            "gustSpeed": 0.0,
            "risk": 0,
            "forecastTime": "2025-07-10 11:00:00",
            "stationType": "光伏电站"
        },
        {
            "stationId": "WLT000079",
            "stationName": "五里坨",
            "lon": 116.113907,
            "lat": 39.954334,
            "height": 32000.0,
            "windSpeed": 0.0,
            "gustSpeed": 0.0,
            "risk": 0,
            "forecastTime": "2025-07-10 11:00:00",
            "stationType": "风电站"
        },
        {
            "stationId": "GC000080",
            "stationName": "古城",
            "lon": 116.174671,
            "lat": 39.911794,
            "height": 32000.0,
            "windSpeed": 0.0,
            "gustSpeed": 0.0,
            "risk": 0,
            "forecastTime": "2025-07-10 11:00:00",
            "stationType": "变电站"
        },
        {
            "stationId": "JDJ000081",
            "stationName": "金顶街",
            "lon": 116.167718,
            "lat": 39.933518,
            "height": 32000.0,
            "windSpeed": 0.0,
            "gustSpeed": 0.0,
            "risk": 0,
            "forecastTime": "2025-07-10 11:00:00",
            "stationType": "光伏电站"
        },
        {
            "stationId": "XSK000082",
            "stationName": "杏石口",
            "lon": 116.200333,
            "lat": 39.93783,
            "height": 32000.0,
            "windSpeed": 0.0,
            "gustSpeed": 0.0,
            "risk": 0,
            "forecastTime": "2025-07-10 11:00:00",
            "stationType": "光伏电站"
        },
        {
            "stationId": "LG000083",
            "stationName": "鲁谷",
            "lon": 116.214905,
            "lat": 39.896524,
            "height": 32000.0,
            "windSpeed": 0.0,
            "gustSpeed": 0.0,
            "risk": 0,
            "forecastTime": "2025-07-10 11:00:00",
            "stationType": "风电站"
        },
        {
            "stationId": "BBD000084",
            "stationName": "半壁店",
            "lon": 116.625821,
            "lat": 39.879843,
            "height": 32000.0,
            "windSpeed": 0.0,
            "gustSpeed": 0.0,
            "risk": 0,
            "forecastTime": "2025-07-10 11:00:00",
            "stationType": "变电站"
        },
        {
            "stationId": "BY000085",
            "stationName": "北苑",
            "lon": 116.634487,
            "lat": 39.909623,
            "height": 32000.0,
            "windSpeed": 0.0,
            "gustSpeed": 0.0,
            "risk": 0,
            "forecastTime": "2025-07-10 11:00:00",
            "stationType": "光伏电站"
        },
        {
            "stationId": "CQ000086",
            "stationName": "次渠",
            "lon": 116.552012,
            "lat": 39.80885,
            "height": 32000.0,
            "windSpeed": 0.0,
            "gustSpeed": 0.0,
            "risk": 0,
            "forecastTime": "2025-07-10 11:00:00",
            "stationType": "光伏电站"
        },
        {
            "stationId": "HMC000087",
            "stationName": "皇木厂",
            "lon": 116.706393,
            "lat": 39.857223,
            "height": 32000.0,
            "windSpeed": 0.0,
            "gustSpeed": 0.0,
            "risk": 0,
            "forecastTime": "2025-07-10 11:00:00",
            "stationType": "变电站"
        },
        {
            "stationId": "HX000088",
            "stationName": "霍县",
            "lon": 116.760406,
            "lat": 39.765909,
            "height": 32000.0,
            "windSpeed": 0.0,
            "gustSpeed": 0.0,
            "risk": 0,
            "forecastTime": "2025-07-10 11:00:00",
            "stationType": "风电站"
        },
        {
            "stationId": "LC000089",
            "stationName": "潞城",
            "lon": 116.808502,
            "lat": 39.853619,
            "height": 32000.0,
            "windSpeed": 0.0,
            "gustSpeed": 0.0,
            "risk": 0,
            "forecastTime": "2025-07-10 11:00:00",
            "stationType": "变电站"
        },
        {
            "stationId": "NBT000090",
            "stationName": "牛堡屯",
            "lon": 116.694467,
            "lat": 39.765742,
            "height": 32000.0,
            "windSpeed": 0.0,
            "gustSpeed": 0.0,
            "risk": 0,
            "forecastTime": "2025-07-10 11:00:00",
            "stationType": "变电站"
        },
        {
            "stationId": "WXZ000091",
            "stationName": "武辛庄",
            "lon": 116.860701,
            "lat": 39.815144,
            "height": 32000.0,
            "windSpeed": 0.0,
            "gustSpeed": 0.0,
            "risk": 0,
            "forecastTime": "2025-07-10 11:00:00",
            "stationType": "光伏电站"
        },
        {
            "stationId": "XM000092",
            "stationName": "西门",
            "lon": 116.630058,
            "lat": 39.891939,
            "height": 32000.0,
            "windSpeed": 0.0,
            "gustSpeed": 0.0,
            "risk": 0,
            "forecastTime": "2025-07-10 11:00:00",
            "stationType": "光伏电站"
        },
        {
            "stationId": "YLD000093",
            "stationName": "永乐店",
            "lon": 116.77029,
            "lat": 39.605667,
            "height": 32000.0,
            "windSpeed": 0.0,
            "gustSpeed": 0.0,
            "risk": 0,
            "forecastTime": "2025-07-10 11:00:00",
            "stationType": "光伏电站"
        },
        {
            "stationId": "YS000094",
            "stationName": "永顺",
            "lon": 116.666495,
            "lat": 39.948348,
            "height": 32000.0,
            "windSpeed": 0.0,
            "gustSpeed": 0.0,
            "risk": 0,
            "forecastTime": "2025-07-10 11:00:00",
            "stationType": "风电站"
        },
        {
            "stationId": "YJW000095",
            "stationName": "于家务",
            "lon": 116.724997,
            "lat": 39.684363,
            "height": 32000.0,
            "windSpeed": 0.0,
            "gustSpeed": 0.0,
            "risk": 0,
            "forecastTime": "2025-07-10 11:00:00",
            "stationType": "光伏电站"
        },
        {
            "stationId": "YF000096",
            "stationName": "玉甫",
            "lon": 116.631788,
            "lat": 39.838777,
            "height": 32000.0,
            "windSpeed": 0.0,
            "gustSpeed": 0.0,
            "risk": 0,
            "forecastTime": "2025-07-10 11:00:00",
            "stationType": "光伏电站"
        },
        {
            "stationId": "ZJW000097",
            "stationName": "张家湾",
            "lon": 116.720118,
            "lat": 39.859331,
            "height": 32000.0,
            "windSpeed": 0.0,
            "gustSpeed": 0.0,
            "risk": 0,
            "forecastTime": "2025-07-10 11:00:00",
            "stationType": "光伏电站"
        },
        {
            "stationId": "YZ000098",
            "stationName": "亦庄",
            "lon": 116.500665,
            "lat": 39.808877,
            "height": 32000.0,
            "windSpeed": 0.0,
            "gustSpeed": 0.0,
            "risk": 0,
            "forecastTime": "2025-07-10 11:00:00",
            "stationType": "变电站"
        },
        {
            "stationId": "ZQ000099",
            "stationName": "长青",
            "lon": 116.101623,
            "lat": 39.791147,
            "height": 32000.0,
            "windSpeed": 0.0,
            "gustSpeed": 0.0,
            "risk": 0,
            "forecastTime": "2025-07-10 11:00:00",
            "stationType": "风电站"
        },
        {
            "stationId": "XN000100",
            "stationName": "咸宁",
            "lon": 116.574615,
            "lat": 39.893597,
            "height": 32000.0,
            "windSpeed": 0.0,
            "gustSpeed": 0.0,
            "risk": 0,
            "forecastTime": "2025-07-10 11:00:00",
            "stationType": "光伏电站"
        },
        {
            "stationId": "SHD000101",
            "stationName": "孙河东",
            "lon": 116.531593,
            "lat": 40.044406,
            "height": 32000.0,
            "windSpeed": 0.0,
            "gustSpeed": 0.0,
            "risk": 0,
            "forecastTime": "2025-07-10 11:00:00",
            "stationType": "风电站"
        },
        {
            "stationId": "SCH000102",
            "stationName": "什刹海",
            "lon": 116.371699,
            "lat": 39.9466,
            "height": 32000.0,
            "windSpeed": 0.0,
            "gustSpeed": 0.0,
            "risk": 0,
            "forecastTime": "2025-07-10 11:00:00",
            "stationType": "变电站"
        },
        {
            "stationId": "ZLY000103",
            "stationName": "长陵营",
            "lon": 116.791557,
            "lat": 39.773811,
            "height": 32000.0,
            "windSpeed": 0.0,
            "gustSpeed": 0.0,
            "risk": 0,
            "forecastTime": "2025-07-10 11:00:00",
            "stationType": "风电站"
        },
        {
            "stationId": "DGC000104",
            "stationName": "大稿村",
            "lon": 116.634519,
            "lat": 39.866252,
            "height": 32000.0,
            "windSpeed": 0.0,
            "gustSpeed": 0.0,
            "risk": 0,
            "forecastTime": "2025-07-10 11:00:00",
            "stationType": "风电站"
        },
        {
            "stationId": "DRW000105",
            "stationName": "德仁务",
            "lon": 116.774376,
            "lat": 39.666115,
            "height": 32000.0,
            "windSpeed": 0.0,
            "gustSpeed": 0.0,
            "risk": 0,
            "forecastTime": "2025-07-10 11:00:00",
            "stationType": "变电站"
        },
        {
            "stationId": "MQ000106",
            "stationName": "马桥",
            "lon": 116.5673,
            "lat": 39.7549,
            "height": 32000.0,
            "windSpeed": 0.0,
            "gustSpeed": 0.0,
            "risk": 0,
            "forecastTime": "2025-07-10 11:00:00",
            "stationType": "变电站"
        },
        {
            "stationId": "MZ000107",
            "stationName": "麦庄",
            "lon": 116.595834,
            "lat": 39.801624,
            "height": 32000.0,
            "windSpeed": 0.0,
            "gustSpeed": 0.0,
            "risk": 0,
            "forecastTime": "2025-07-10 11:00:00",
            "stationType": "变电站"
        },
        {
            "stationId": "MZD000108",
            "stationName": "觅子店",
            "lon": 116.8889,
            "lat": 39.7196,
            "height": 32000.0,
            "windSpeed": 0.0,
            "gustSpeed": 0.0,
            "risk": 0,
            "forecastTime": "2025-07-10 11:00:00",
            "stationType": "风电站"
        },
        {
            "stationId": "SZ000109",
            "stationName": "宋庄",
            "lon": 116.7393,
            "lat": 39.9508,
            "height": 32000.0,
            "windSpeed": 0.0,
            "gustSpeed": 0.0,
            "risk": 0,
            "forecastTime": "2025-07-10 11:00:00",
            "stationType": "风电站"
        },
        {
            "stationId": "ZW000110",
            "stationName": "张湾",
            "lon": 116.7172,
            "lat": 39.8536,
            "height": 32000.0,
            "windSpeed": 0.0,
            "gustSpeed": 0.0,
            "risk": 0,
            "forecastTime": "2025-07-10 11:00:00",
            "stationType": "风电站"
        },
        {
            "stationId": "BH000111",
            "stationName": "白河",
            "lon": 116.836812,
            "lat": 40.466823,
            "height": 32000.0,
            "windSpeed": 0.0,
            "gustSpeed": 0.0,
            "risk": 0,
            "forecastTime": "2025-07-10 11:00:00",
            "stationType": "变电站"
        },
        {
            "stationId": "YAL000112",
            "stationName": "永安里",
            "lon": 116.431696,
            "lat": 39.904838,
            "height": 32000.0,
            "windSpeed": 0.0,
            "gustSpeed": 0.0,
            "risk": 0,
            "forecastTime": "2025-07-10 11:00:00",
            "stationType": "光伏电站"
        },
        {
            "stationId": "BXQ000113",
            "stationName": "北新桥",
            "lon": 116.411619,
            "lat": 39.933325,
            "height": 32000.0,
            "windSpeed": 0.0,
            "gustSpeed": 0.0,
            "risk": 0,
            "forecastTime": "2025-07-10 11:00:00",
            "stationType": "光伏电站"
        },
        {
            "stationId": "DZL000114",
            "stationName": "大栅栏",
            "lon": 116.389843,
            "lat": 39.888883,
            "height": 32000.0,
            "windSpeed": 0.0,
            "gustSpeed": 0.0,
            "risk": 0,
            "forecastTime": "2025-07-10 11:00:00",
            "stationType": "光伏电站"
        },
        {
            "stationId": "WML000115",
            "stationName": "万明路",
            "lon": 116.384055,
            "lat": 39.886055,
            "height": 32000.0,
            "windSpeed": 0.0,
            "gustSpeed": 0.0,
            "risk": 0,
            "forecastTime": "2025-07-10 11:00:00",
            "stationType": "风电站"
        },
        {
            "stationId": "YHG000116",
            "stationName": "雍和宫",
            "lon": 116.417519,
            "lat": 39.947559,
            "height": 32000.0,
            "windSpeed": 0.0,
            "gustSpeed": 0.0,
            "risk": 0,
            "forecastTime": "2025-07-10 11:00:00",
            "stationType": "风电站"
        },
        {
            "stationId": "QLZ000117",
            "stationName": "七里庄",
            "lon": 116.274335,
            "lat": 39.863349,
            "height": 32000.0,
            "windSpeed": 0.0,
            "gustSpeed": 0.0,
            "risk": 0,
            "forecastTime": "2025-07-10 11:00:00",
            "stationType": "光伏电站"
        },
        {
            "stationId": "ANZ000118",
            "stationName": "安宁庄",
            "lon": 116.317706,
            "lat": 40.05153,
            "height": 32000.0,
            "windSpeed": 0.0,
            "gustSpeed": 0.0,
            "risk": 0,
            "forecastTime": "2025-07-10 11:00:00",
            "stationType": "风电站"
        },
        {
            "stationId": "BJT000119",
            "stationName": "白家疃",
            "lon": 116.170103,
            "lat": 40.048544,
            "height": 32000.0,
            "windSpeed": 0.0,
            "gustSpeed": 0.0,
            "risk": 0,
            "forecastTime": "2025-07-10 11:00:00",
            "stationType": "风电站"
        },
        {
            "stationId": "HK000120",
            "stationName": "华康",
            "lon": 116.50124,
            "lat": 39.785708,
            "height": 32000.0,
            "windSpeed": 0.0,
            "gustSpeed": 0.0,
            "risk": 0,
            "forecastTime": "2025-07-10 11:00:00",
            "stationType": "变电站"
        },
        {
            "stationId": "QY000121",
            "stationName": "庆羊",
            "lon": 116.532977,
            "lat": 39.801875,
            "height": 32000.0,
            "windSpeed": 0.0,
            "gustSpeed": 0.0,
            "risk": 0,
            "forecastTime": "2025-07-10 11:00:00",
            "stationType": "风电站"
        },
        {
            "stationId": "HS000122",
            "stationName": "弘善",
            "lon": 116.442662,
            "lat": 39.869729,
            "height": 32000.0,
            "windSpeed": 0.0,
            "gustSpeed": 0.0,
            "risk": 0,
            "forecastTime": "2025-07-10 11:00:00",
            "stationType": "风电站"
        },
        {
            "stationId": "JGM000123",
            "stationName": "建国门",
            "lon": 116.446396,
            "lat": 39.905554,
            "height": 32000.0,
            "windSpeed": 0.0,
            "gustSpeed": 0.0,
            "risk": 0,
            "forecastTime": "2025-07-10 11:00:00",
            "stationType": "变电站"
        },
        {
            "stationId": "PF000124",
            "stationName": "平房",
            "lon": 116.558963,
            "lat": 39.939672,
            "height": 32000.0,
            "windSpeed": 0.0,
            "gustSpeed": 0.0,
            "risk": 0,
            "forecastTime": "2025-07-10 11:00:00",
            "stationType": "光伏电站"
        },
        {
            "stationId": "JBJ000125",
            "stationName": "金宝街",
            "lon": 116.426283,
            "lat": 39.918445,
            "height": 32000.0,
            "windSpeed": 0.0,
            "gustSpeed": 0.0,
            "risk": 0,
            "forecastTime": "2025-07-10 11:00:00",
            "stationType": "风电站"
        },
        {
            "stationId": "JZ000126",
            "stationName": "纪庄",
            "lon": 116.628219,
            "lat": 39.94129,
            "height": 32000.0,
            "windSpeed": 0.0,
            "gustSpeed": 0.0,
            "risk": 0,
            "forecastTime": "2025-07-10 11:00:00",
            "stationType": "变电站"
        },
        {
            "stationId": "DDS000127",
            "stationName": "大杜社",
            "lon": 116.635961,
            "lat": 39.745555,
            "height": 32000.0,
            "windSpeed": 0.0,
            "gustSpeed": 0.0,
            "risk": 0,
            "forecastTime": "2025-07-10 11:00:00",
            "stationType": "变电站"
        },
        {
            "stationId": "MZ000128",
            "stationName": "闵庄",
            "lon": 116.247528,
            "lat": 39.97411,
            "height": 32000.0,
            "windSpeed": 0.0,
            "gustSpeed": 0.0,
            "risk": 0,
            "forecastTime": "2025-07-10 11:00:00",
            "stationType": "变电站"
        },
        {
            "stationId": "HBJ000129",
            "stationName": "后八家",
            "lon": 116.331359,
            "lat": 40.018734,
            "height": 32000.0,
            "windSpeed": 0.0,
            "gustSpeed": 0.0,
            "risk": 0,
            "forecastTime": "2025-07-10 11:00:00",
            "stationType": "风电站"
        },
        {
            "stationId": "JYJ000130",
            "stationName": "景园街",
            "lon": 116.524303,
            "lat": 39.779734,
            "height": 32000.0,
            "windSpeed": 0.0,
            "gustSpeed": 0.0,
            "risk": 0,
            "forecastTime": "2025-07-10 11:00:00",
            "stationType": "变电站"
        },
        {
            "stationId": "DMC000131",
            "stationName": "动漫城",
            "lon": 116.227047,
            "lat": 39.873516,
            "height": 32000.0,
            "windSpeed": 0.0,
            "gustSpeed": 0.0,
            "risk": 0,
            "forecastTime": "2025-07-10 11:00:00",
            "stationType": "风电站"
        },
        {
            "stationId": "DZC000132",
            "stationName": "电子城",
            "lon": 116.50066,
            "lat": 39.986229,
            "height": 32000.0,
            "windSpeed": 0.0,
            "gustSpeed": 0.0,
            "risk": 0,
            "forecastTime": "2025-07-10 11:00:00",
            "stationType": "变电站"
        },
        {
            "stationId": "JZ000133",
            "stationName": "金盏",
            "lon": 116.55927,
            "lat": 40.009749,
            "height": 32000.0,
            "windSpeed": 0.0,
            "gustSpeed": 0.0,
            "risk": 0,
            "forecastTime": "2025-07-10 11:00:00",
            "stationType": "风电站"
        },
        {
            "stationId": "BGS000134",
            "stationName": "报国寺",
            "lon": 116.352183,
            "lat": 39.888529,
            "height": 32000.0,
            "windSpeed": 0.0,
            "gustSpeed": 0.0,
            "risk": 0,
            "forecastTime": "2025-07-10 11:00:00",
            "stationType": "变电站"
        },
        {
            "stationId": "GGZ000135",
            "stationName": "郭公庄",
            "lon": 116.314013,
            "lat": 39.819004,
            "height": 32000.0,
            "windSpeed": 0.0,
            "gustSpeed": 0.0,
            "risk": 0,
            "forecastTime": "2025-07-10 11:00:00",
            "stationType": "光伏电站"
        },
        {
            "stationId": "SL000136",
            "stationName": "石莲",
            "lon": 116.226085,
            "lat": 39.909297,
            "height": 32000.0,
            "windSpeed": 0.0,
            "gustSpeed": 0.0,
            "risk": 0,
            "forecastTime": "2025-07-10 11:00:00",
            "stationType": "风电站"
        },
        {
            "stationId": "DHM000137",
            "stationName": "大红门",
            "lon": 116.406723,
            "lat": 39.831962,
            "height": 32000.0,
            "windSpeed": 0.0,
            "gustSpeed": 0.0,
            "risk": 0,
            "forecastTime": "2025-07-10 11:00:00",
            "stationType": "变电站"
        },
        {
            "stationId": "JS000138",
            "stationName": "金石",
            "lon": 116.489103,
            "lat": 39.895285,
            "height": 32000.0,
            "windSpeed": 0.0,
            "gustSpeed": 0.0,
            "risk": 0,
            "forecastTime": "2025-07-10 11:00:00",
            "stationType": "风电站"
        },
        {
            "stationId": "SXZ000139",
            "stationName": "三星庄",
            "lon": 116.182864,
            "lat": 40.082964,
            "height": 32000.0,
            "windSpeed": 0.0,
            "gustSpeed": 0.0,
            "risk": 0,
            "forecastTime": "2025-07-10 11:00:00",
            "stationType": "风电站"
        },
        {
            "stationId": "TJ000140",
            "stationName": "通久",
            "lon": 116.37221,
            "lat": 39.825012,
            "height": 32000.0,
            "windSpeed": 0.0,
            "gustSpeed": 0.0,
            "risk": 0,
            "forecastTime": "2025-07-10 11:00:00",
            "stationType": "变电站"
        },
        {
            "stationId": "LSL000141",
            "stationName": "礼士路",
            "lon": 116.34828,
            "lat": 39.913025,
            "height": 32000.0,
            "windSpeed": 0.0,
            "gustSpeed": 0.0,
            "risk": 0,
            "forecastTime": "2025-07-10 11:00:00",
            "stationType": "光伏电站"
        },
        {
            "stationId": "WJT000142",
            "stationName": "望君疃",
            "lon": 116.864777,
            "lat": 39.8087,
            "height": 32000.0,
            "windSpeed": 0.0,
            "gustSpeed": 0.0,
            "risk": 0,
            "forecastTime": "2025-07-10 11:00:00",
            "stationType": "光伏电站"
        },
        {
            "stationId": "XD000143",
            "stationName": "兴都",
            "lon": 116.266334,
            "lat": 39.764959,
            "height": 32000.0,
            "windSpeed": 0.0,
            "gustSpeed": 0.0,
            "risk": 0,
            "forecastTime": "2025-07-10 11:00:00",
            "stationType": "光伏电站"
        },
        {
            "stationId": "CY000144",
            "stationName": "朝阳",
            "lon": 116.54471,
            "lat": 39.883218,
            "height": 32000.0,
            "windSpeed": 0.0,
            "gustSpeed": 0.0,
            "risk": 0,
            "forecastTime": "2025-07-10 11:00:00",
            "stationType": "风电站"
        },
        {
            "stationId": "CB000145",
            "stationName": "城北",
            "lon": 116.44103,
            "lat": 40.045838,
            "height": 32000.0,
            "windSpeed": 0.0,
            "gustSpeed": 0.0,
            "risk": 0,
            "forecastTime": "2025-07-10 11:00:00",
            "stationType": "光伏电站"
        },
        {
            "stationId": "HD000146",
            "stationName": "海淀",
            "lon": 116.23052,
            "lat": 39.94045,
            "height": 32000.0,
            "windSpeed": 0.0,
            "gustSpeed": 0.0,
            "risk": 0,
            "forecastTime": "2025-07-10 11:00:00",
            "stationType": "风电站"
        },
        {
            "stationId": "ZCL000147",
            "stationName": "知春里",
            "lon": 116.332776,
            "lat": 39.975924,
            "height": 32000.0,
            "windSpeed": 0.0,
            "gustSpeed": 0.0,
            "risk": 0,
            "forecastTime": "2025-07-10 11:00:00",
            "stationType": "光伏电站"
        },
        {
            "stationId": "CC000148",
            "stationName": "草厂",
            "lon": 116.749834,
            "lat": 39.741529,
            "height": 32000.0,
            "windSpeed": 0.0,
            "gustSpeed": 0.0,
            "risk": 0,
            "forecastTime": "2025-07-10 11:00:00",
            "stationType": "光伏电站"
        },
        {
            "stationId": "WJ000149",
            "stationName": "望京",
            "lon": 116.447618,
            "lat": 39.997941,
            "height": 32000.0,
            "windSpeed": 0.0,
            "gustSpeed": 0.0,
            "risk": 0,
            "forecastTime": "2025-07-10 11:00:00",
            "stationType": "变电站"
        },
        {
            "stationId": "YS000150",
            "stationName": "堰上",
            "lon": 116.585142,
            "lat": 39.77709,
            "height": 32000.0,
            "windSpeed": 0.0,
            "gustSpeed": 0.0,
            "risk": 0,
            "forecastTime": "2025-07-10 11:00:00",
            "stationType": "光伏电站"
        },
        {
            "stationId": "HCH000151",
            "stationName": "韩村河",
            "lon": 115.940578,
            "lat": 39.604225,
            "height": 32000.0,
            "windSpeed": 0.0,
            "gustSpeed": 0.0,
            "risk": 0,
            "forecastTime": "2025-07-10 11:00:00",
            "stationType": "风电站"
        },
        {
            "stationId": "ZAM000152",
            "stationName": "左安门",
            "lon": 116.433929,
            "lat": 39.86644,
            "height": 32000.0,
            "windSpeed": 0.0,
            "gustSpeed": 0.0,
            "risk": 0,
            "forecastTime": "2025-07-10 11:00:00",
            "stationType": "光伏电站"
        },
        {
            "stationId": "WSY000153",
            "stationName": "王四营",
            "lon": 116.517537,
            "lat": 39.894079,
            "height": 32000.0,
            "windSpeed": 0.0,
            "gustSpeed": 0.0,
            "risk": 0,
            "forecastTime": "2025-07-10 11:00:00",
            "stationType": "光伏电站"
        },
        {
            "stationId": "TH000154",
            "stationName": "台湖",
            "lon": 116.629525,
            "lat": 39.840724,
            "height": 32000.0,
            "windSpeed": 0.0,
            "gustSpeed": 0.0,
            "risk": 0,
            "forecastTime": "2025-07-10 11:00:00",
            "stationType": "光伏电站"
        },
        {
            "stationId": "NY000155",
            "stationName": "南苑",
            "lon": 116.349095,
            "lat": 39.815278,
            "height": 32000.0,
            "windSpeed": 0.0,
            "gustSpeed": 0.0,
            "risk": 0,
            "forecastTime": "2025-07-10 11:00:00",
            "stationType": "光伏电站"
        },
        {
            "stationId": "ZCJ000156",
            "stationName": "长椿街",
            "lon": 116.357835,
            "lat": 39.899824,
            "height": 32000.0,
            "windSpeed": 0.0,
            "gustSpeed": 0.0,
            "risk": 0,
            "forecastTime": "2025-07-10 11:00:00",
            "stationType": "风电站"
        },
        {
            "stationId": "LC000157",
            "stationName": "吕村",
            "lon": 116.162058,
            "lat": 39.826113,
            "height": 32000.0,
            "windSpeed": 0.0,
            "gustSpeed": 0.0,
            "risk": 0,
            "forecastTime": "2025-07-10 11:00:00",
            "stationType": "光伏电站"
        },
        {
            "stationId": "LJT000158",
            "stationName": "老君堂",
            "lon": 116.515206,
            "lat": 39.839197,
            "height": 32000.0,
            "windSpeed": 0.0,
            "gustSpeed": 0.0,
            "risk": 0,
            "forecastTime": "2025-07-10 11:00:00",
            "stationType": "变电站"
        },
        {
            "stationId": "CL000159",
            "stationName": "翠林",
            "lon": 116.367315,
            "lat": 39.860277,
            "height": 32000.0,
            "windSpeed": 0.0,
            "gustSpeed": 0.0,
            "risk": 0,
            "forecastTime": "2025-07-10 11:00:00",
            "stationType": "光伏电站"
        },
        {
            "stationId": "DAM000160",
            "stationName": "地安门",
            "lon": 116.389998,
            "lat": 39.949131,
            "height": 32000.0,
            "windSpeed": 0.0,
            "gustSpeed": 0.0,
            "risk": 0,
            "forecastTime": "2025-07-10 11:00:00",
            "stationType": "变电站"
        },
        {
            "stationId": "YQY000161",
            "stationName": "玉泉营",
            "lon": 116.349557,
            "lat": 39.847088,
            "height": 32000.0,
            "windSpeed": 0.0,
            "gustSpeed": 0.0,
            "risk": 0,
            "forecastTime": "2025-07-10 11:00:00",
            "stationType": "变电站"
        },
        {
            "stationId": "JD000162",
            "stationName": "军都",
            "lon": 116.308263,
            "lat": 40.222547,
            "height": 32000.0,
            "windSpeed": 0.0,
            "gustSpeed": 0.0,
            "risk": 0,
            "forecastTime": "2025-07-10 11:00:00",
            "stationType": "光伏电站"
        },
        {
            "stationId": "HS000163",
            "stationName": "黄寺",
            "lon": 116.396886,
            "lat": 39.976223,
            "height": 32000.0,
            "windSpeed": 0.0,
            "gustSpeed": 0.0,
            "risk": 0,
            "forecastTime": "2025-07-10 11:00:00",
            "stationType": "光伏电站"
        },
        {
            "stationId": "ZY000164",
            "stationName": "张仪",
            "lon": 116.2243,
            "lat": 39.8779,
            "height": 32000.0,
            "windSpeed": 0.0,
            "gustSpeed": 0.0,
            "risk": 0,
            "forecastTime": "2025-07-10 11:00:00",
            "stationType": "光伏电站"
        },
        {
            "stationId": "LC000165",
            "stationName": "芦城",
            "lon": 116.256777,
            "lat": 39.767075,
            "height": 32000.0,
            "windSpeed": 0.0,
            "gustSpeed": 0.0,
            "risk": 0,
            "forecastTime": "2025-07-10 11:00:00",
            "stationType": "风电站"
        },
        {
            "stationId": "YCB000166",
            "stationName": "阎村北",
            "lon": 116.048996,
            "lat": 39.722339,
            "height": 32000.0,
            "windSpeed": 0.0,
            "gustSpeed": 0.0,
            "risk": 0,
            "forecastTime": "2025-07-10 11:00:00",
            "stationType": "光伏电站"
        },
        {
            "stationId": "XDW000167",
            "stationName": "西大望",
            "lon": 116.475205,
            "lat": 39.906123,
            "height": 32000.0,
            "windSpeed": 0.0,
            "gustSpeed": 0.0,
            "risk": 0,
            "forecastTime": "2025-07-10 11:00:00",
            "stationType": "光伏电站"
        },
        {
            "stationId": "FLC000168",
            "stationName": "富力城",
            "lon": 116.449736,
            "lat": 39.89389,
            "height": 32000.0,
            "windSpeed": 0.0,
            "gustSpeed": 0.0,
            "risk": 0,
            "forecastTime": "2025-07-10 11:00:00",
            "stationType": "风电站"
        },
        {
            "stationId": "CQ000169",
            "stationName": "草桥",
            "lon": 116.340512,
            "lat": 39.863108,
            "height": 32000.0,
            "windSpeed": 0.0,
            "gustSpeed": 0.0,
            "risk": 0,
            "forecastTime": "2025-07-10 11:00:00",
            "stationType": "风电站"
        },
        {
            "stationId": "RH000170",
            "stationName": "荣华",
            "lon": 116.528066,
            "lat": 39.764555,
            "height": 32000.0,
            "windSpeed": 0.0,
            "gustSpeed": 0.0,
            "risk": 0,
            "forecastTime": "2025-07-10 11:00:00",
            "stationType": "风电站"
        },
        {
            "stationId": "TYG000171",
            "stationName": "太阳宫",
            "lon": 116.431593,
            "lat": 39.96952,
            "height": 32000.0,
            "windSpeed": 0.0,
            "gustSpeed": 0.0,
            "risk": 0,
            "forecastTime": "2025-07-10 11:00:00",
            "stationType": "变电站"
        },
        {
            "stationId": "AYC000172",
            "stationName": "奥运村",
            "lon": 116.368862,
            "lat": 40.026356,
            "height": 32000.0,
            "windSpeed": 0.0,
            "gustSpeed": 0.0,
            "risk": 0,
            "forecastTime": "2025-07-10 11:00:00",
            "stationType": "变电站"
        },
        {
            "stationId": "QH000173",
            "stationName": "清河",
            "lon": 116.336117,
            "lat": 40.047781,
            "height": 32000.0,
            "windSpeed": 0.0,
            "gustSpeed": 0.0,
            "risk": 0,
            "forecastTime": "2025-07-10 11:00:00",
            "stationType": "变电站"
        },
        {
            "stationId": "DBJ000174",
            "stationName": "东北郊",
            "lon": 116.495363,
            "lat": 39.981173,
            "height": 32000.0,
            "windSpeed": 0.0,
            "gustSpeed": 0.0,
            "risk": 0,
            "forecastTime": "2025-07-10 11:00:00",
            "stationType": "风电站"
        },
        {
            "stationId": "LS000175",
            "stationName": "李遂",
            "lon": 116.787726,
            "lat": 40.097981,
            "height": 32000.0,
            "windSpeed": 0.0,
            "gustSpeed": 0.0,
            "risk": 0,
            "forecastTime": "2025-07-10 11:00:00",
            "stationType": "变电站"
        },
        {
            "stationId": "WFJ000176",
            "stationName": "王府井",
            "lon": 116.407386,
            "lat": 39.908954,
            "height": 32000.0,
            "windSpeed": 0.0,
            "gustSpeed": 0.0,
            "risk": 0,
            "forecastTime": "2025-07-10 11:00:00",
            "stationType": "风电站"
        },
        {
            "stationId": "XZ000177",
            "stationName": "下庄",
            "lon": 116.371598,
            "lat": 40.27822,
            "height": 32000.0,
            "windSpeed": 0.0,
            "gustSpeed": 0.0,
            "risk": 0,
            "forecastTime": "2025-07-10 11:00:00",
            "stationType": "变电站"
        },
        {
            "stationId": "SZ000178",
            "stationName": "上庄",
            "lon": 116.282718,
            "lat": 40.072907,
            "height": 32000.0,
            "windSpeed": 0.0,
            "gustSpeed": 0.0,
            "risk": 0,
            "forecastTime": "2025-07-10 11:00:00",
            "stationType": "变电站"
        },
        {
            "stationId": "HR000179",
            "stationName": "怀柔",
            "lon": 116.657156,
            "lat": 40.304256,
            "height": 32000.0,
            "windSpeed": 0.0,
            "gustSpeed": 0.0,
            "risk": 0,
            "forecastTime": "2025-07-10 11:00:00",
            "stationType": "光伏电站"
        },
        {
            "stationId": "TZ000180",
            "stationName": "通州",
            "lon": 116.698625,
            "lat": 39.890144,
            "height": 32000.0,
            "windSpeed": 0.0,
            "gustSpeed": 0.0,
            "risk": 0,
            "forecastTime": "2025-07-10 11:00:00",
            "stationType": "风电站"
        },
        {
            "stationId": "RH000181",
            "stationName": "仁和",
            "lon": 116.684007,
            "lat": 40.076194,
            "height": 32000.0,
            "windSpeed": 0.0,
            "gustSpeed": 0.0,
            "risk": 0,
            "forecastTime": "2025-07-10 11:00:00",
            "stationType": "风电站"
        },
        {
            "stationId": "PG000182",
            "stationName": "平谷",
            "lon": 117.057044,
            "lat": 40.141756,
            "height": 32000.0,
            "windSpeed": 0.0,
            "gustSpeed": 0.0,
            "risk": 0,
            "forecastTime": "2025-07-10 11:00:00",
            "stationType": "风电站"
        },
        {
            "stationId": "GLY000183",
            "stationName": "高丽营",
            "lon": 116.533437,
            "lat": 40.196199,
            "height": 32000.0,
            "windSpeed": 0.0,
            "gustSpeed": 0.0,
            "risk": 0,
            "forecastTime": "2025-07-10 11:00:00",
            "stationType": "光伏电站"
        },
        {
            "stationId": "DFZ000184",
            "stationName": "定福庄",
            "lon": 116.594435,
            "lat": 39.937079,
            "height": 32000.0,
            "windSpeed": 0.0,
            "gustSpeed": 0.0,
            "risk": 0,
            "forecastTime": "2025-07-10 11:00:00",
            "stationType": "风电站"
        },
        {
            "stationId": "HJY000185",
            "stationName": "红军营",
            "lon": 116.434628,
            "lat": 40.04156,
            "height": 32000.0,
            "windSpeed": 0.0,
            "gustSpeed": 0.0,
            "risk": 0,
            "forecastTime": "2025-07-10 11:00:00",
            "stationType": "风电站"
        },
        {
            "stationId": "DX000186",
            "stationName": "大兴",
            "lon": 116.374835,
            "lat": 39.668252,
            "height": 32000.0,
            "windSpeed": 0.0,
            "gustSpeed": 0.0,
            "risk": 0,
            "forecastTime": "2025-07-10 11:00:00",
            "stationType": "光伏电站"
        },
        {
            "stationId": "YGY000187",
            "stationName": "榆管营",
            "lon": 116.111224,
            "lat": 39.704754,
            "height": 32000.0,
            "windSpeed": 0.0,
            "gustSpeed": 0.0,
            "risk": 0,
            "forecastTime": "2025-07-10 11:00:00",
            "stationType": "变电站"
        },
        {
            "stationId": "CYM000188",
            "stationName": "朝阳门",
            "lon": 116.43093,
            "lat": 39.926706,
            "height": 32000.0,
            "windSpeed": 0.0,
            "gustSpeed": 0.0,
            "risk": 0,
            "forecastTime": "2025-07-10 11:00:00",
            "stationType": "光伏电站"
        },
        {
            "stationId": "LHC000189",
            "stationName": "莲花池",
            "lon": 116.297601,
            "lat": 39.89021,
            "height": 32000.0,
            "windSpeed": 0.0,
            "gustSpeed": 0.0,
            "risk": 0,
            "forecastTime": "2025-07-10 11:00:00",
            "stationType": "变电站"
        },
        {
            "stationId": "XZM000190",
            "stationName": "西直门",
            "lon": 116.355569,
            "lat": 39.945574,
            "height": 32000.0,
            "windSpeed": 0.0,
            "gustSpeed": 0.0,
            "risk": 0,
            "forecastTime": "2025-07-10 11:00:00",
            "stationType": "光伏电站"
        },
        {
            "stationId": "BDL000191",
            "stationName": "八达岭",
            "lon": 116.019928,
            "lat": 40.420279,
            "height": 32000.0,
            "windSpeed": 0.0,
            "gustSpeed": 0.0,
            "risk": 0,
            "forecastTime": "2025-07-10 11:00:00",
            "stationType": "变电站"
        },
        {
            "stationId": "HLG000192",
            "stationName": "回龙观",
            "lon": 116.354738,
            "lat": 40.086773,
            "height": 32000.0,
            "windSpeed": 0.0,
            "gustSpeed": 0.0,
            "risk": 0,
            "forecastTime": "2025-07-10 11:00:00",
            "stationType": "风电站"
        },
        {
            "stationId": "XST000193",
            "stationName": "西沙屯",
            "lon": 116.259658,
            "lat": 40.174932,
            "height": 32000.0,
            "windSpeed": 0.0,
            "gustSpeed": 0.0,
            "risk": 0,
            "forecastTime": "2025-07-10 11:00:00",
            "stationType": "光伏电站"
        },
        {
            "stationId": "BLZ000194",
            "stationName": "八里庄",
            "lon": 116.283856,
            "lat": 39.924262,
            "height": 32000.0,
            "windSpeed": 0.0,
            "gustSpeed": 0.0,
            "risk": 0,
            "forecastTime": "2025-07-10 11:00:00",
            "stationType": "风电站"
        },
        {
            "stationId": "BS000195",
            "stationName": "宝山",
            "lon": 116.225114,
            "lat": 39.922313,
            "height": 32000.0,
            "windSpeed": 0.0,
            "gustSpeed": 0.0,
            "risk": 0,
            "forecastTime": "2025-07-10 11:00:00",
            "stationType": "光伏电站"
        },
        {
            "stationId": "KYH000196",
            "stationName": "昆玉河",
            "lon": 116.282467,
            "lat": 39.973635,
            "height": 32000.0,
            "windSpeed": 0.0,
            "gustSpeed": 0.0,
            "risk": 0,
            "forecastTime": "2025-07-10 11:00:00",
            "stationType": "风电站"
        },
        {
            "stationId": "SH000197",
            "stationName": "孙河",
            "lon": 116.494576,
            "lat": 40.019981,
            "height": 32000.0,
            "windSpeed": 0.0,
            "gustSpeed": 0.0,
            "risk": 0,
            "forecastTime": "2025-07-10 11:00:00",
            "stationType": "风电站"
        },
        {
            "stationId": "BS000198",
            "stationName": "北寺",
            "lon": 116.732735,
            "lat": 39.981763,
            "height": 32000.0,
            "windSpeed": 0.0,
            "gustSpeed": 0.0,
            "risk": 0,
            "forecastTime": "2025-07-10 11:00:00",
            "stationType": "风电站"
        },
        {
            "stationId": "QYD000199",
            "stationName": "青云店",
            "lon": 116.494988,
            "lat": 39.678623,
            "height": 32000.0,
            "windSpeed": 0.0,
            "gustSpeed": 0.0,
            "risk": 0,
            "forecastTime": "2025-07-10 11:00:00",
            "stationType": "变电站"
        },
        {
            "stationId": "DS000200",
            "stationName": "东升",
            "lon": 116.33372,
            "lat": 40.004664,
            "height": 32000.0,
            "windSpeed": 0.0,
            "gustSpeed": 0.0,
            "risk": 0,
            "forecastTime": "2025-07-10 11:00:00",
            "stationType": "变电站"
        },
        {
            "stationId": "MY000201",
            "stationName": "密云",
            "lon": 116.773619,
            "lat": 40.319224,
            "height": 32000.0,
            "windSpeed": 0.0,
            "gustSpeed": 0.0,
            "risk": 0,
            "forecastTime": "2025-07-10 11:00:00",
            "stationType": "变电站"
        },
        {
            "stationId": "CLZ000202",
            "stationName": "陈留庄",
            "lon": 116.314608,
            "lat": 39.781605,
            "height": 32000.0,
            "windSpeed": 0.0,
            "gustSpeed": 0.0,
            "risk": 0,
            "forecastTime": "2025-07-10 11:00:00",
            "stationType": "光伏电站"
        },
        {
            "stationId": "FT000203",
            "stationName": "垡头",
            "lon": 116.492579,
            "lat": 39.858068,
            "height": 32000.0,
            "windSpeed": 0.0,
            "gustSpeed": 0.0,
            "risk": 0,
            "forecastTime": "2025-07-10 11:00:00",
            "stationType": "风电站"
        },
        {
            "stationId": "KN000204",
            "stationName": "康宁",
            "lon": 116.541698,
            "lat": 39.782894,
            "height": 32000.0,
            "windSpeed": 0.0,
            "gustSpeed": 0.0,
            "risk": 0,
            "forecastTime": "2025-07-10 11:00:00",
            "stationType": "光伏电站"
        },
        {
            "stationId": "DBD000205",
            "stationName": "东坝东",
            "lon": 116.60281,
            "lat": 39.987,
            "height": 32000.0,
            "windSpeed": 0.0,
            "gustSpeed": 0.0,
            "risk": 0,
            "forecastTime": "2025-07-10 11:00:00",
            "stationType": "光伏电站"
        },
        {
            "stationId": "TH000206",
            "stationName": "团河",
            "lon": 116.380592,
            "lat": 39.74249,
            "height": 32000.0,
            "windSpeed": 0.0,
            "gustSpeed": 0.0,
            "risk": 0,
            "forecastTime": "2025-07-10 11:00:00",
            "stationType": "光伏电站"
        },
        {
            "stationId": "XBW000207",
            "stationName": "西北旺",
            "lon": 116.2186,
            "lat": 40.054128,
            "height": 32000.0,
            "windSpeed": 0.0,
            "gustSpeed": 0.0,
            "risk": 0,
            "forecastTime": "2025-07-10 11:00:00",
            "stationType": "光伏电站"
        },
        {
            "stationId": "LY000208",
            "stationName": "栗元",
            "lon": 116.097401,
            "lat": 39.891825,
            "height": 32000.0,
            "windSpeed": 0.0,
            "gustSpeed": 0.0,
            "risk": 0,
            "forecastTime": "2025-07-10 11:00:00",
            "stationType": "光伏电站"
        },
        {
            "stationId": "NGZ000209",
            "stationName": "聂各庄",
            "lon": 116.118307,
            "lat": 40.092566,
            "height": 32000.0,
            "windSpeed": 0.0,
            "gustSpeed": 0.0,
            "risk": 0,
            "forecastTime": "2025-07-10 11:00:00",
            "stationType": "变电站"
        },
        {
            "stationId": "XM000210",
            "stationName": "西马",
            "lon": 116.529568,
            "lat": 40.1419,
            "height": 32000.0,
            "windSpeed": 0.0,
            "gustSpeed": 0.0,
            "risk": 0,
            "forecastTime": "2025-07-10 11:00:00",
            "stationType": "光伏电站"
        },
        {
            "stationId": "TY000211",
            "stationName": "桃园",
            "lon": 116.359793,
            "lat": 39.939764,
            "height": 32000.0,
            "windSpeed": 0.0,
            "gustSpeed": 0.0,
            "risk": 0,
            "forecastTime": "2025-07-10 11:00:00",
            "stationType": "光伏电站"
        },
        {
            "stationId": "HN000212",
            "stationName": "霍南",
            "lon": 116.394273,
            "lat": 40.122211,
            "height": 32000.0,
            "windSpeed": 0.0,
            "gustSpeed": 0.0,
            "risk": 0,
            "forecastTime": "2025-07-10 11:00:00",
            "stationType": "变电站"
        },
        {
            "stationId": "SWY000213",
            "stationName": "商务园",
            "lon": 116.648571,
            "lat": 39.951058,
            "height": 32000.0,
            "windSpeed": 0.0,
            "gustSpeed": 0.0,
            "risk": 0,
            "forecastTime": "2025-07-10 11:00:00",
            "stationType": "变电站"
        },
        {
            "stationId": "WLC000214",
            "stationName": "未来城",
            "lon": 116.460468,
            "lat": 40.132737,
            "height": 32000.0,
            "windSpeed": 0.0,
            "gustSpeed": 0.0,
            "risk": 0,
            "forecastTime": "2025-07-10 11:00:00",
            "stationType": "光伏电站"
        },
        {
            "stationId": "CSK000215",
            "stationName": "菜市口",
            "lon": 116.369228,
            "lat": 39.88122,
            "height": 32000.0,
            "windSpeed": 0.0,
            "gustSpeed": 0.0,
            "risk": 0,
            "forecastTime": "2025-07-10 11:00:00",
            "stationType": "变电站"
        },
        {
            "stationId": "HRB000216",
            "stationName": "怀柔北",
            "lon": 116.702212,
            "lat": 40.38906,
            "height": 32000.0,
            "windSpeed": 0.0,
            "gustSpeed": 0.0,
            "risk": 0,
            "forecastTime": "2025-07-10 11:00:00",
            "stationType": "风电站"
        },
        {
            "stationId": "YD000217",
            "stationName": "永定",
            "lon": 116.17874,
            "lat": 39.8911,
            "height": 32000.0,
            "windSpeed": 0.0,
            "gustSpeed": 0.0,
            "risk": 0,
            "forecastTime": "2025-07-10 11:00:00",
            "stationType": "光伏电站"
        },
        {
            "stationId": "YD000218",
            "stationName": "远大",
            "lon": 116.265375,
            "lat": 39.958159,
            "height": 32000.0,
            "windSpeed": 0.0,
            "gustSpeed": 0.0,
            "risk": 0,
            "forecastTime": "2025-07-10 11:00:00",
            "stationType": "光伏电站"
        },
        {
            "stationId": "JXQ000219",
            "stationName": "酒仙桥",
            "lon": 116.509644,
            "lat": 39.978657,
            "height": 32000.0,
            "windSpeed": 0.0,
            "gustSpeed": 0.0,
            "risk": 0,
            "forecastTime": "2025-07-10 11:00:00",
            "stationType": "风电站"
        },
        {
            "stationId": "WQ000220",
            "stationName": "温泉",
            "lon": 116.145893,
            "lat": 40.056587,
            "height": 32000.0,
            "windSpeed": 0.0,
            "gustSpeed": 0.0,
            "risk": 0,
            "forecastTime": "2025-07-10 11:00:00",
            "stationType": "变电站"
        },
        {
            "stationId": "TJH000221",
            "stationName": "团结湖",
            "lon": 116.494324,
            "lat": 39.943265,
            "height": 32000.0,
            "windSpeed": 0.0,
            "gustSpeed": 0.0,
            "risk": 0,
            "forecastTime": "2025-07-10 11:00:00",
            "stationType": "风电站"
        },
        {
            "stationId": "LTH000222",
            "stationName": "龙潭湖",
            "lon": 116.426326,
            "lat": 39.878746,
            "height": 32000.0,
            "windSpeed": 0.0,
            "gustSpeed": 0.0,
            "risk": 0,
            "forecastTime": "2025-07-10 11:00:00",
            "stationType": "风电站"
        },
        {
            "stationId": "GBD000223",
            "stationName": "高碑店",
            "lon": 116.529746,
            "lat": 39.883902,
            "height": 32000.0,
            "windSpeed": 0.0,
            "gustSpeed": 0.0,
            "risk": 0,
            "forecastTime": "2025-07-10 11:00:00",
            "stationType": "风电站"
        },
        {
            "stationId": "QJZ000224",
            "stationName": "七家庄",
            "lon": 116.472231,
            "lat": 40.10088,
            "height": 32000.0,
            "windSpeed": 0.0,
            "gustSpeed": 0.0,
            "risk": 0,
            "forecastTime": "2025-07-10 11:00:00",
            "stationType": "光伏电站"
        },
        {
            "stationId": "MP000225",
            "stationName": "马坡",
            "lon": 116.617633,
            "lat": 40.168804,
            "height": 32000.0,
            "windSpeed": 0.0,
            "gustSpeed": 0.0,
            "risk": 0,
            "forecastTime": "2025-07-10 11:00:00",
            "stationType": "光伏电站"
        },
        {
            "stationId": "BG000226",
            "stationName": "北宫",
            "lon": 116.145602,
            "lat": 39.850272,
            "height": 32000.0,
            "windSpeed": 0.0,
            "gustSpeed": 0.0,
            "risk": 0,
            "forecastTime": "2025-07-10 11:00:00",
            "stationType": "变电站"
        },
        {
            "stationId": "BXZ000227",
            "stationName": "八仙庄",
            "lon": 116.424965,
            "lat": 40.12894,
            "height": 32000.0,
            "windSpeed": 0.0,
            "gustSpeed": 0.0,
            "risk": 0,
            "forecastTime": "2025-07-10 11:00:00",
            "stationType": "变电站"
        },
        {
            "stationId": "BF000228",
            "stationName": "白坊",
            "lon": 116.421114,
            "lat": 40.068566,
            "height": 32000.0,
            "windSpeed": 0.0,
            "gustSpeed": 0.0,
            "risk": 0,
            "forecastTime": "2025-07-10 11:00:00",
            "stationType": "风电站"
        },
        {
            "stationId": "BF000229",
            "stationName": "白浮",
            "lon": 116.28135,
            "lat": 40.197704,
            "height": 32000.0,
            "windSpeed": 0.0,
            "gustSpeed": 0.0,
            "risk": 0,
            "forecastTime": "2025-07-10 11:00:00",
            "stationType": "光伏电站"
        },
        {
            "stationId": "BH000230",
            "stationName": "白河",
            "lon": 116.149502,
            "lat": 40.628825,
            "height": 32000.0,
            "windSpeed": 0.0,
            "gustSpeed": 0.0,
            "risk": 0,
            "forecastTime": "2025-07-10 11:00:00",
            "stationType": "变电站"
        },
        {
            "stationId": "BGZ000231",
            "stationName": "班各庄",
            "lon": 115.889452,
            "lat": 39.817019,
            "height": 32000.0,
            "windSpeed": 0.0,
            "gustSpeed": 0.0,
            "risk": 0,
            "forecastTime": "2025-07-10 11:00:00",
            "stationType": "光伏电站"
        },
        {
            "stationId": "BD000232",
            "stationName": "北店",
            "lon": 116.332454,
            "lat": 40.071582,
            "height": 32000.0,
            "windSpeed": 0.0,
            "gustSpeed": 0.0,
            "risk": 0,
            "forecastTime": "2025-07-10 11:00:00",
            "stationType": "光伏电站"
        },
        {
            "stationId": "BF000233",
            "stationName": "北房",
            "lon": 116.677164,
            "lat": 40.328527,
            "height": 32000.0,
            "windSpeed": 0.0,
            "gustSpeed": 0.0,
            "risk": 0,
            "forecastTime": "2025-07-10 11:00:00",
            "stationType": "风电站"
        },
        {
            "stationId": "BH000234",
            "stationName": "北河",
            "lon": 116.698993,
            "lat": 40.041848,
            "height": 32000.0,
            "windSpeed": 0.0,
            "gustSpeed": 0.0,
            "risk": 0,
            "forecastTime": "2025-07-10 11:00:00",
            "stationType": "变电站"
        },
        {
            "stationId": "BQJ000235",
            "stationName": "北七家",
            "lon": 116.414949,
            "lat": 40.119047,
            "height": 32000.0,
            "windSpeed": 0.0,
            "gustSpeed": 0.0,
            "risk": 0,
            "forecastTime": "2025-07-10 11:00:00",
            "stationType": "光伏电站"
        },
        {
            "stationId": "BSC000236",
            "stationName": "北石槽",
            "lon": 116.546177,
            "lat": 40.253592,
            "height": 32000.0,
            "windSpeed": 0.0,
            "gustSpeed": 0.0,
            "risk": 0,
            "forecastTime": "2025-07-10 11:00:00",
            "stationType": "风电站"
        },
        {
            "stationId": "BW000237",
            "stationName": "北务",
            "lon": 116.796483,
            "lat": 40.062997,
            "height": 32000.0,
            "windSpeed": 0.0,
            "gustSpeed": 0.0,
            "risk": 0,
            "forecastTime": "2025-07-10 11:00:00",
            "stationType": "光伏电站"
        },
        {
            "stationId": "BXY000238",
            "stationName": "北小营",
            "lon": 116.724367,
            "lat": 40.214732,
            "height": 32000.0,
            "windSpeed": 0.0,
            "gustSpeed": 0.0,
            "risk": 0,
            "forecastTime": "2025-07-10 11:00:00",
            "stationType": "风电站"
        },
        {
            "stationId": "BZ000239",
            "stationName": "北庄",
            "lon": 117.166195,
            "lat": 40.508847,
            "height": 32000.0,
            "windSpeed": 0.0,
            "gustSpeed": 0.0,
            "risk": 0,
            "forecastTime": "2025-07-10 11:00:00",
            "stationType": "光伏电站"
        },
        {
            "stationId": "BH000240",
            "stationName": "滨河",
            "lon": 117.081089,
            "lat": 40.133343,
            "height": 32000.0,
            "windSpeed": 0.0,
            "gustSpeed": 0.0,
            "risk": 0,
            "forecastTime": "2025-07-10 11:00:00",
            "stationType": "风电站"
        },
        {
            "stationId": "BY000241",
            "stationName": "滨阳",
            "lon": 116.853822,
            "lat": 40.369623,
            "height": 32000.0,
            "windSpeed": 0.0,
            "gustSpeed": 0.0,
            "risk": 0,
            "forecastTime": "2025-07-10 11:00:00",
            "stationType": "变电站"
        },
        {
            "stationId": "BH000242",
            "stationName": "渤海",
            "lon": 116.513238,
            "lat": 40.413519,
            "height": 32000.0,
            "windSpeed": 0.0,
            "gustSpeed": 0.0,
            "risk": 0,
            "forecastTime": "2025-07-10 11:00:00",
            "stationType": "风电站"
        },
        {
            "stationId": "QZ000243",
            "stationName": "乔庄",
            "lon": 116.685146,
            "lat": 39.88266,
            "height": 32000.0,
            "windSpeed": 0.0,
            "gustSpeed": 0.0,
            "risk": 0,
            "forecastTime": "2025-07-10 11:00:00",
            "stationType": "风电站"
        },
        {
            "stationId": "SFX000244",
            "stationName": "市府西",
            "lon": 116.70628,
            "lat": 39.906677,
            "height": 32000.0,
            "windSpeed": 0.0,
            "gustSpeed": 0.0,
            "risk": 0,
            "forecastTime": "2025-07-10 11:00:00",
            "stationType": "风电站"
        },
        {
            "stationId": "ZXDZ000245",
            "stationName": "长辛店站",
            "lon": 116.2127,
            "lat": 39.8428,
            "height": 32000.0,
            "windSpeed": 0.0,
            "gustSpeed": 0.0,
            "risk": 0,
            "forecastTime": "2025-07-10 11:00:00",
            "stationType": "光伏电站"
        },
        {
            "stationId": "GT000246",
            "stationName": "甘棠",
            "lon": 116.809359,
            "lat": 39.853599,
            "height": 32000.0,
            "windSpeed": 0.0,
            "gustSpeed": 0.0,
            "risk": 0,
            "forecastTime": "2025-07-10 11:00:00",
            "stationType": "风电站"
        },
        {
            "stationId": "DYF000247",
            "stationName": "大羊坊",
            "lon": 116.485072,
            "lat": 39.841905,
            "height": 32000.0,
            "windSpeed": 0.0,
            "gustSpeed": 0.0,
            "risk": 0,
            "forecastTime": "2025-07-10 11:00:00",
            "stationType": "风电站"
        },
        {
            "stationId": "WT000248",
            "stationName": "万通",
            "lon": 116.57403,
            "lat": 39.852061,
            "height": 32000.0,
            "windSpeed": 0.0,
            "gustSpeed": 0.0,
            "risk": 0,
            "forecastTime": "2025-07-10 11:00:00",
            "stationType": "风电站"
        },
        {
            "stationId": "TZ000249",
            "stationName": "通州",
            "lon": 116.7475,
            "lat": 39.7872,
            "height": 32000.0,
            "windSpeed": 0.0,
            "gustSpeed": 0.0,
            "risk": 0,
            "forecastTime": "2025-07-10 11:00:00",
            "stationType": "变电站"
        },
        {
            "stationId": "FS000250",
            "stationName": "房山",
            "lon": 116.0487,
            "lat": 39.6988,
            "height": 32000.0,
            "windSpeed": 0.0,
            "gustSpeed": 0.0,
            "risk": 0,
            "forecastTime": "2025-07-10 11:00:00",
            "stationType": "风电站"
        },
        {
            "stationId": "AD000251",
            "stationName": "安定",
            "lon": 116.4959,
            "lat": 39.6576,
            "height": 32000.0,
            "windSpeed": 0.0,
            "gustSpeed": 0.0,
            "risk": 0,
            "forecastTime": "2025-07-10 11:00:00",
            "stationType": "风电站"
        },
        {
            "stationId": "CP000252",
            "stationName": "昌平",
            "lon": 116.328,
            "lat": 40.225,
            "height": 32000.0,
            "windSpeed": 0.0,
            "gustSpeed": 0.0,
            "risk": 0,
            "forecastTime": "2025-07-10 11:00:00",
            "stationType": "光伏电站"
        },
        {
            "stationId": "SY000253",
            "stationName": "顺义",
            "lon": 116.7339,
            "lat": 40.2367,
            "height": 32000.0,
            "windSpeed": 0.0,
            "gustSpeed": 0.0,
            "risk": 0,
            "forecastTime": "2025-07-10 11:00:00",
            "stationType": "变电站"
        },
        {
            "stationId": "MTG000254",
            "stationName": "门头沟",
            "lon": 116.0977,
            "lat": 39.8922,
            "height": 32000.0,
            "windSpeed": 0.0,
            "gustSpeed": 0.0,
            "risk": 0,
            "forecastTime": "2025-07-10 11:00:00",
            "stationType": "风电站"
        },
        {
            "stationId": "LQY000255",
            "stationName": "罗奇营",
            "lon": 116.283388,
            "lat": 39.694505,
            "height": 32000.0,
            "windSpeed": 0.0,
            "gustSpeed": 0.0,
            "risk": 0,
            "forecastTime": "2025-07-10 11:00:00",
            "stationType": "风电站"
        },
        {
            "stationId": "XXG000256",
            "stationName": "信息港",
            "lon": 116.223883,
            "lat": 40.143364,
            "height": 32000.0,
            "windSpeed": 0.0,
            "gustSpeed": 0.0,
            "risk": 0,
            "forecastTime": "2025-07-10 11:00:00",
            "stationType": "风电站"
        },
        {
            "stationId": "DF000257",
            "stationName": "东府",
            "lon": 116.780969,
            "lat": 40.203604,
            "height": 32000.0,
            "windSpeed": 0.0,
            "gustSpeed": 0.0,
            "risk": 0,
            "forecastTime": "2025-07-10 11:00:00",
            "stationType": "风电站"
        },
        {
            "stationId": "YZS000258",
            "stationName": "鱼子山",
            "lon": 117.149522,
            "lat": 40.179678,
            "height": 32000.0,
            "windSpeed": 0.0,
            "gustSpeed": 0.0,
            "risk": 0,
            "forecastTime": "2025-07-10 11:00:00",
            "stationType": "变电站"
        },
        {
            "stationId": "BSZ000259",
            "stationName": "宝善庄",
            "lon": 116.462969,
            "lat": 39.794052,
            "height": 32000.0,
            "windSpeed": 0.0,
            "gustSpeed": 0.0,
            "risk": 0,
            "forecastTime": "2025-07-10 11:00:00",
            "stationType": "变电站"
        },
        {
            "stationId": "JL000260",
            "stationName": "吉利",
            "lon": 116.155652,
            "lat": 40.171424,
            "height": 32000.0,
            "windSpeed": 0.0,
            "gustSpeed": 0.0,
            "risk": 0,
            "forecastTime": "2025-07-10 11:00:00",
            "stationType": "变电站"
        },
        {
            "stationId": "DXJ000261",
            "stationName": "东晓景",
            "lon": 116.5659,
            "lat": 39.956969,
            "height": 32000.0,
            "windSpeed": 0.0,
            "gustSpeed": 0.0,
            "risk": 0,
            "forecastTime": "2025-07-10 11:00:00",
            "stationType": "变电站"
        },
        {
            "stationId": "BH000262",
            "stationName": "北湖",
            "lon": 116.112082,
            "lat": 39.839691,
            "height": 32000.0,
            "windSpeed": 0.0,
            "gustSpeed": 0.0,
            "risk": 0,
            "forecastTime": "2025-07-10 11:00:00",
            "stationType": "风电站"
        },
        {
            "stationId": "HSL000263",
            "stationName": "槐树岭",
            "lon": 116.153034,
            "lat": 39.860353,
            "height": 32000.0,
            "windSpeed": 0.0,
            "gustSpeed": 0.0,
            "risk": 0,
            "forecastTime": "2025-07-10 11:00:00",
            "stationType": "变电站"
        },
        {
            "stationId": "WP000264",
            "stationName": "王平",
            "lon": 115.972102,
            "lat": 39.960949,
            "height": 32000.0,
            "windSpeed": 0.0,
            "gustSpeed": 0.0,
            "risk": 0,
            "forecastTime": "2025-07-10 11:00:00",
            "stationType": "光伏电站"
        },
        {
            "stationId": "SFD000265",
            "stationName": "市府东",
            "lon": 116.732145,
            "lat": 39.903387,
            "height": 32000.0,
            "windSpeed": 0.0,
            "gustSpeed": 0.0,
            "risk": 0,
            "forecastTime": "2025-07-10 11:00:00",
            "stationType": "变电站"
        },
        {
            "stationId": "BQ000266",
            "stationName": "板桥",
            "lon": 116.525824,
            "lat": 40.225613,
            "height": 32000.0,
            "windSpeed": 0.0,
            "gustSpeed": 0.0,
            "risk": 0,
            "forecastTime": "2025-07-10 11:00:00",
            "stationType": "变电站"
        },
        {
            "stationId": "ZT000267",
            "stationName": "中滩",
            "lon": 116.382605,
            "lat": 40.053724,
            "height": 32000.0,
            "windSpeed": 0.0,
            "gustSpeed": 0.0,
            "risk": 0,
            "forecastTime": "2025-07-10 11:00:00",
            "stationType": "光伏电站"
        },
        {
            "stationId": "YJY000268",
            "stationName": "月季园",
            "lon": 116.389664,
            "lat": 39.682078,
            "height": 32000.0,
            "windSpeed": 0.0,
            "gustSpeed": 0.0,
            "risk": 0,
            "forecastTime": "2025-07-10 11:00:00",
            "stationType": "变电站"
        },
        {
            "stationId": "TFZ000269",
            "stationName": "太福庄",
            "lon": 116.265086,
            "lat": 39.738321,
            "height": 32000.0,
            "windSpeed": 0.0,
            "gustSpeed": 0.0,
            "risk": 0,
            "forecastTime": "2025-07-10 11:00:00",
            "stationType": "风电站"
        },
        {
            "stationId": "LYQY000270",
            "stationName": "李营牵引",
            "lon": 116.3256,
            "lat": 39.7855,
            "height": 32000.0,
            "windSpeed": 0.0,
            "gustSpeed": 0.0,
            "risk": 0,
            "forecastTime": "2025-07-10 11:00:00",
            "stationType": "光伏电站"
        },
        {
            "stationId": "WSZQY000271",
            "stationName": "魏善庄牵引",
            "lon": 116.389633,
            "lat": 39.669612,
            "height": 32000.0,
            "windSpeed": 0.0,
            "gustSpeed": 0.0,
            "risk": 0,
            "forecastTime": "2025-07-10 11:00:00",
            "stationType": "光伏电站"
        },
        {
            "stationId": "YZQY000272",
            "stationName": "亦庄牵引",
            "lon": 116.572179,
            "lat": 39.827251,
            "height": 32000.0,
            "windSpeed": 0.0,
            "gustSpeed": 0.0,
            "risk": 0,
            "forecastTime": "2025-07-10 11:00:00",
            "stationType": "风电站"
        },
        {
            "stationId": "DLZQY000273",
            "stationName": "大刘庄牵引",
            "lon": 116.19769,
            "lat": 39.861962,
            "height": 32000.0,
            "windSpeed": 0.0,
            "gustSpeed": 0.0,
            "risk": 0,
            "forecastTime": "2025-07-10 11:00:00",
            "stationType": "变电站"
        },
        {
            "stationId": "YC000274",
            "stationName": "月城",
            "lon": 101.77,
            "lat": 27.53,
            "height": 32000.0,
            "windSpeed": 0.0,
            "gustSpeed": 0.0,
            "risk": 0,
            "forecastTime": "2025-07-10 11:00:00",
            "stationType": "光伏电站"
        },
        {
            "stationId": "GY000275",
            "stationName": "广阳",
            "lon": 116.186711,
            "lat": 39.740941,
            "height": 32000.0,
            "windSpeed": 0.0,
            "gustSpeed": 0.0,
            "risk": 0,
            "forecastTime": "2025-07-10 11:00:00",
            "stationType": "变电站"
        },
        {
            "stationId": "LXB000276",
            "stationName": "礼贤北",
            "lon": 116.458,
            "lat": 39.573,
            "height": 32000.0,
            "windSpeed": 0.0,
            "gustSpeed": 0.0,
            "risk": 0,
            "forecastTime": "2025-07-10 11:00:00",
            "stationType": "风电站"
        },
        {
            "stationId": "YFB000277",
            "stationName": "榆垡北",
            "lon": 116.317519,
            "lat": 39.526401,
            "height": 32000.0,
            "windSpeed": 0.0,
            "gustSpeed": 0.0,
            "risk": 0,
            "forecastTime": "2025-07-10 11:00:00",
            "stationType": "变电站"
        },
        {
            "stationId": "XTY000278",
            "stationName": "西铁营",
            "lon": 116.343667,
            "lat": 39.856244,
            "height": 32000.0,
            "windSpeed": 0.0,
            "gustSpeed": 0.0,
            "risk": 0,
            "forecastTime": "2025-07-10 11:00:00",
            "stationType": "变电站"
        },
        {
            "stationId": "LC000279",
            "stationName": "流村",
            "lon": 116.072142,
            "lat": 40.178362,
            "height": 32000.0,
            "windSpeed": 0.0,
            "gustSpeed": 0.0,
            "risk": 0,
            "forecastTime": "2025-07-10 11:00:00",
            "stationType": "光伏电站"
        },
        {
            "stationId": "QY000280",
            "stationName": "清源",
            "lon": 116.345214,
            "lat": 39.740893,
            "height": 32000.0,
            "windSpeed": 0.0,
            "gustSpeed": 0.0,
            "risk": 0,
            "forecastTime": "2025-07-10 11:00:00",
            "stationType": "变电站"
        },
        {
            "stationId": "GS000281",
            "stationName": "广厦",
            "lon": 116.457876,
            "lat": 39.573784,
            "height": 32000.0,
            "windSpeed": 0.0,
            "gustSpeed": 0.0,
            "risk": 0,
            "forecastTime": "2025-07-10 11:00:00",
            "stationType": "光伏电站"
        },